[
  {"id": "1", "title": "Simpang APMD (PTZ)", "url": "https://cctvjss.jogjakota.go.id/atcs/ATCS_apmd.stream/playlist.m3u8", "lat": "-7.791971", "lng": "110.391644"},
  {"id": "2", "title": "Simpang Jlagran (PTZ)", "url": "https://cctvjss.jogjakota.go.id/atcs/ATCS_jlagran.stream/playlist.m3u8", "lat": "-7.789037", "lng": "110.357515"},
  {"id": "3", "title": "Simpang Cendana (PTZ)", "url": "https://cctvjss.jogjakota.go.id/atcs/ATCS_cendana.stream/playlist.m3u8", "lat": "-7.801676", "lng": "110.384166"},
  {"id": "5", "title": "Simpang Gayam (PTZ)", "url": "https://cctvjss.jogjakota.go.id/atcs/ATCS_gayam.stream/playlist.m3u8", "lat": "-7.797301", "lng": "110.377627"},
  {"id": "6", "title": "Simpang Gondomanan (PTZ)", "url": "https://cctvjss.jogjakota.go.id/atcs/ATCS_gondomanan.stream/playlist.m3u8", "lat": "-7.801683", "lng": "110.369172"},
  {"id": "9", "title": "Simpang Jokteng Kulon (PTZ)", "url": "https://cctvjss.jogjakota.go.id/atcs/ATCS_joktengkulon.stream/playlist.m3u8", "lat": "-7.81294", "lng": "110.35594"},
  {"id": "10", "title": "Simpang Jokteng Wetan", "url": "https://cctvjss.jogjakota.go.id/atcs/ATCS_joktengwetan.stream/playlist.m3u8", "lat": "-7.814380", "lng": "110.368067"},
  {"id": "14", "title": "Simpang KM Nol (PTZ)", "url": "https://cctvjss.jogjakota.go.id/atcs/ATCS_kmnol.stream/playlist.m3u8", "lat": "-7.801075", "lng": "110.364752"},
  {"id": "16", "title": "Simpang Permata (PTZ)", "url": "https://cctvjss.jogjakota.go.id/atcs/ATCS_permata.stream/playlist.m3u8", "lat": "-7.801543", "lng": "110.373072"},
  {"id": "17", "title": "Simpang PKU Muh. (PTZ)", "url": "https://cctvjss.jogjakota.go.id/atcs/ATCS_pkumuh.stream/playlist.m3u8", "lat": "-7.801283", "lng": "110.362061"},
  {"id": "19", "title": "Simpang Sentul (PTZ)", "url": "https://cctvjss.jogjakota.go.id/atcs/ATCS_sentul.stream/playlist.m3u8", "lat": "-7.801442", "lng": "110.377943"},
  {"id": "20", "title": "Simpang Serangan (PTZ)", "url": "https://cctvjss.jogjakota.go.id/atcs/ATCS_serangan.stream/playlist.m3u8", "lat": "-7.800627", "lng": "110.355402"},
  {"id": "21", "title": "Simpang SGM V. Timur", "url": "https://cctvjss.jogjakota.go.id/atcs/ATCS_simpangsgm.stream/playlist.m3u8", "lat": "-7.801931", "lng": "110.395147"},
  {"id": "22", "title": "Simpang Tungkak (PTZ)", "url": "https://cctvjss.jogjakota.go.id/atcs/ATCS_tungkak.stream/playlist.m3u8", "lat": "-7.815638", "lng": "110.376092"},
  {"id": "23", "title": "Simpang Tunjung (PTZ)", "url": "https://cctvjss.jogjakota.go.id/atcs/ATCS_tunjung.stream/playlist.m3u8", "lat": "-7.793725", "lng": "110.377761"},
  {"id": "24", "title": "Simpang UKDW (PTZ)", "url": "https://cctvjss.jogjakota.go.id/atcs/ATCS_ukdw.stream/playlist.m3u8", "lat": "-7.787246", "lng": "110.378641"},
  {"id": "25", "title": "Simpang Wirobrajan (PTZ)", "url": "https://cctvjss.jogjakota.go.id/atcs/ATCS_wirobrajan.stream/playlist.m3u8", "lat": "-7.801025", "lng": "110.351781"},
  {"id": "29", "title": "Sungai Gajah Wong 2", "url": "https://cctvjss.jogjakota.go.id/bpbd/BPBD_gajahwong2.stream/playlist.m3u8", "lat": "-7.790914", "lng": "110.395984"},
  {"id": "31", "title": "Sungai Ngentak", "url": "https://cctvjss.jogjakota.go.id/bpbd/BPBD_ngentak.stream/playlist.m3u8", "lat": "-7.722645", "lng": "110.389263"},
  {"id": "129", "title": "Simpang UST (PTZ)", "url": "https://cctvjss.jogjakota.go.id/atcs/ATCS_UST.stream/playlist.m3u8", "lat": "-7.801964", "lng": "110.391985"},
  {"id": "130", "title": "Simpang Glagahsari", "url": "https://cctvjss.jogjakota.go.id/atcs/ATCS_Glagahsari.stream/playlist.m3u8", "lat": "-7.802046", "lng": "110.389081"},
  {"id": "147", "title": "Simpang Ibu Ruswo (PTZ)", "url": "https://cctvjss.jogjakota.go.id/atcs/ATCS_Ibu_Ruswo.stream/playlist.m3u8", "lat": "-7.803446", "lng": "110.369237"},
  {"id": "148", "title": "Simpang BPK (PTZ)", "url": "https://cctvjss.jogjakota.go.id/atcs/ATCS_bpk.stream/playlist.m3u8", "lat": "-7.790786", "lng": "110.353803"},
  {"id": "157", "title": "Simpang Jogokariyan V. Selatan", "url": "https://cctvjss.jogjakota.go.id/atcs/ATCS_jogokaryan.stream/playlist.m3u8", "lat": "-7.824677", "lng": "110.367726"},
  {"id": "159", "title": "Simpang APPI - JL.Mentri Supeno", "url": "https://cctvjss.jogjakota.go.id/atcs/ATCS_Lampu_Merah_JlMentriSupeno.stream/playlist.m3u8", "lat": "-7.816165", "lng": "110.383189"},
  {"id": "160", "title": "Simpang Kiai Mojo 1 (Barat)", "url": "https://cctvjss.jogjakota.go.id/atcs/ATCS_Lampu_Merah_KyaiMojo.stream/playlist.m3u8", "lat": "-7.782729", "lng": "110.357907"},
  {"id": "161", "title": "Simpang Kiai Mojo 2 (Timur)", "url": "https://cctvjss.jogjakota.go.id/atcs/ATCS_Lampu_Merah_KyaiMojo2.stream/playlist.m3u8", "lat": "-7.782686", "lng": "110.357993"},
  {"id": "163", "title": "Simpang Pingit 1 - Jl.Tentara Pelajar", "url": "https://cctvjss.jogjakota.go.id/atcs/ATCS_Lampu_Merah_Pingit1.stream/playlist.m3u8", "lat": "-7.782734", "lng": "110.360653"},
  {"id": "164", "title": "Simpang Pingit 2 - Jl. Tentara Pelajar", "url": "https://cctvjss.jogjakota.go.id/atcs/ATCS_Lampu_Merah_Pingit2.stream/playlist.m3u8", "lat": "-7.782906", "lng": "110.360731"},
  {"id": "165", "title": "Simpang Pingit 3 - Jl. Tentara Pelajar", "url": "https://cctvjss.jogjakota.go.id/atcs/ATCS_Lampu_Merah_Pingit3.stream/playlist.m3u8", "lat": "-7.782989", "lng": "110.360659"},
  {"id": "166", "title": "Simpang Gambiran 1 - Jl.Veteran", "url": "https://cctvjss.jogjakota.go.id/atcs/ATCS_Lampu_Merah_Gambiran1.stream/playlist.m3u8", "lat": "-7.814386", "lng": "110.391687"},
  {"id": "167", "title": "Simpang Gambiran 2 - Jl.Veteran", "url": "https://cctvjss.jogjakota.go.id/atcs/ATCS_Lampu_Merah_Gambiran2.stream/playlist.m3u8", "lat": "-7.814407", "lng": "110.391644"},
  {"id": "168", "title": "Simpang APPI 2 - Jl.Mentri Supeno", "url": "https://cctvjss.jogjakota.go.id/atcs/ATCS_Lampu_Merah_JlMentriSupeno2.stream/playlist.m3u8", "lat": "-7.816740", "lng": "110.384139"},
  {"id": "169", "title": "Simpang Karang Tunggal 1", "url": "https://cctvjss.jogjakota.go.id/atcs/ATCS_Lampu_Merah_SopMerah1.stream/playlist.m3u8", "lat": "-7.815185", "lng": "110.373212"},
  {"id": "170", "title": "Simpang Karang Tunggal 2", "url": "https://cctvjss.jogjakota.go.id/atcs/ATCS_Lampu_Merah_SopMerah2.stream/playlist.m3u8", "lat": "-7.815170", "lng": "110.373142"},
  {"id": "171", "title": "Simpang Jokteng Wetan - Jl. Parangtritis", "url": "https://cctvjss.jogjakota.go.id/atcs/ATCS_Lampu_Merah_JoktengWetan.stream/playlist.m3u8", "lat": "-7.814580", "lng": "110.368346"},
  {"id": "172", "title": "Simpang Pasar Gading 1", "url": "https://cctvjss.jogjakota.go.id/atcs/ATCS_Lampu_Merah_PasarGading1.stream/playlist.m3u8", "lat": "-7.813958", "lng": "110.362880"},
  {"id": "173", "title": "Simpang Pasar Gading 2", "url": "https://cctvjss.jogjakota.go.id/atcs/ATCS_Lampu_Merah_PasarGading2.stream/playlist.m3u8", "lat": "-7.813985", "lng": "110.362794"},
  {"id": "174", "title": "Simpang Sugeng Jeroni 1", "url": "https://cctvjss.jogjakota.go.id/atcs/ATCS_Lampu_Merah_SugengJeroni1.stream/playlist.m3u8", "lat": "-7.811962", "lng": "110.349506"},
  {"id": "175", "title": "Simpang Sugeng Jeroni 2", "url": "https://cctvjss.jogjakota.go.id/atcs/ATCS_Lampu_Merah_SugengJeroni2.stream/playlist.m3u8", "lat": "-7.811930", "lng": "110.349485"},
  {"id": "176", "title": "Parkiran Ngabean", "url": "https://cctvjss.jogjakota.go.id/atcs/ATCS_Parkiran_Ngabean.stream/playlist.m3u8", "lat": "-7.801304", "lng": "110.356239"},
  {"id": "177", "title": "Simpang Pingit 4", "url": "https://cctvjss.jogjakota.go.id/atcs/ATCS_Lampu_Merah_Pingit4.stream/playlist.m3u8", "lat": "-7.782895", "lng": "110.360825"},
  {"id": "178", "title": "Simpang Mirota (PTZ)", "url": "https://cctvjss.jogjakota.go.id/atcs/ATCS_mirota.stream/playlist.m3u8", "lat": "-7.776092", "lng": "110.374381"},
  {"id": "179", "title": "Simpang Taman Sari (PTZ)", "url": "https://cctvjss.jogjakota.go.id/atcs/ATCS_tamansari.stream/playlist.m3u8", "lat": "-7.808656", "lng": "110.356005"},
  {"id": "180", "title": "RTHP Semaki 1", "url": "https://cctvjss.jogjakota.go.id/rthp/rthp_semaki_1.stream/playlist.m3u8", "lat": "-7.801009", "lng": "110.384863"},
  {"id": "181", "title": "RTHP Semaki 2", "url": "https://cctvjss.jogjakota.go.id/rthp/rthp_semaki_2.stream/playlist.m3u8", "lat": "-7.800863", "lng": "110.384761"},
  {"id": "195", "title": "RTHP Klitren 2", "url": "https://cctvjss.jogjakota.go.id/rthp/rthp_klitren_2.stream/playlist.m3u8", "lat": "-7.780754", "lng": "110.386615"},
  {"id": "196", "title": "RTHP Gunungketur 1", "url": "https://cctvjss.jogjakota.go.id/rthp/rthp_gunungketur_1.stream/playlist.m3u8", "lat": "-7.798514", "lng": "110.375878"},
  {"id": "197", "title": "RTHP Gunungketur 2", "url": "https://cctvjss.jogjakota.go.id/rthp/rthp_gunungketur_2.stream/playlist.m3u8", "lat": "-7.799409", "lng": "110.378509"},
  {"id": "201", "title": "RTHP Segoro Amarto Tegalrejo 2", "url": "https://cctvjss.jogjakota.go.id/rthp/rthp_segoro_amarto_tegalrejo_2.stream/playlist.m3u8", "lat": "-7.790451", "lng": "110.349689"},
  {"id": "204", "title": "Simpang Amongrogo View Timur", "url": "https://cctvjss.jogjakota.go.id/atcs/ATCS_Simpang_Amongrogo_View_Timur.stream/playlist.m3u8", "lat": "-7.797400", "lng": "110.383672"},
  {"id": "205", "title": "Simpang Demangan View Utara", "url": "https://cctvjss.jogjakota.go.id/atcs/ATCS_Simpang_Demangan_View_Utara.stream/playlist.m3u8", "lat": "-7.783007", "lng": "110.387717"},
  {"id": "206", "title": "Simpang Demangan View Selatan", "url": "https://cctvjss.jogjakota.go.id/atcs/ATCS_Simpang_Demangan_View_Selatan.stream/playlist.m3u8", "lat": "-7.783214", "lng": "110.388017"},
  {"id": "207", "title": "Simpang Demangan View Timur", "url": "https://cctvjss.jogjakota.go.id/atcs/ATCS_Simpang_Demangan_View_Timur.stream/playlist.m3u8", "lat": "-7.783107", "lng": "110.387920"},
  {"id": "227", "title": "Simpang DeBritto View Utara", "url": "https://cctvjss.jogjakota.go.id/atcs/ATCS_Simpang_DeBritto_View_Utara.stream/playlist.m3u8", "lat": "-7.783214", "lng": "110.392239"},
  {"id": "228", "title": "Simpang Terban View Utara", "url": "https://cctvjss.jogjakota.go.id/atcs/ATCS_Simpang_Terban_View_Utara.stream/playlist.m3u8", "lat": "-7.782782", "lng": "110.372273"},
  {"id": "232", "title": "Simpang Rejowinangun View Timur", "url": "https://cctvjss.jogjakota.go.id/atcs/ATCS_Simpang_Rejowinangun_View_Timur.stream/playlist.m3u8", "lat": "-7.810708", "lng": "110.402061"},
  {"id": "233", "title": "Simpang Balaikota View Timur", "url": "https://cctvjss.jogjakota.go.id/atcs/ATCS_Simpang_Balaikota_View_Utara.stream/playlist.m3u8", "lat": "-7.799524", "lng": "110.392352"},
  {"id": "234", "title": "Simpang Balaikota View Utara-Barat", "url": "https://cctvjss.jogjakota.go.id/atcs/ATCS_Simpang_Balaikota_View_Timur.stream/playlist.m3u8", "lat": "-7.799623", "lng": "110.392295"},
  {"id": "237", "title": "Simpang Gedongkuning (PTZ)", "url": "https://cctvjss.jogjakota.go.id/atcs/ATCS_Gedongkuning.stream/playlist.m3u8", "lat": "-7.801731", "lng": "110.401405"},
  {"id": "241", "title": "Simpang Terban View Timur", "url": "https://cctvjss.jogjakota.go.id/atcs/ATCS_Simpang_Terban_View_Timur.stream/playlist.m3u8", "lat": "-7.782840", "lng": "110.372166"},
  {"id": "242", "title": "Simpang Terban View Barat", "url": "https://cctvjss.jogjakota.go.id/atcs/ATCS_Simpang_Terban_View_Barat.stream/playlist.m3u8", "lat": "-7.782829", "lng": "110.372358"},
  {"id": "243", "title": "Pasar Demangan View Selatan", "url": "https://cctvjss.jogjakota.go.id/atcs/ATCS_Pasar_Demangan_View_Selatan.stream/playlist.m3u8", "lat": "-7.780939", "lng": "110.388178"},
  {"id": "244", "title": "Simpang Galeria (PTZ)", "url": "https://cctvjss.jogjakota.go.id/atcs/ATCS_Simpang_Galeria_TimurSelatan.stream/playlist.m3u8", "lat": "-7.782994", "lng": "110.379231"},
  {"id": "245", "title": "Nol Km. - Utara", "url": "https://cctvjss.jogjakota.go.id/malioboro/NolKm_Utara.stream/playlist.m3u8", "lat": "-7.801235", "lng": "110.364924"},
  {"id": "246", "title": "Nol Km. - Timur", "url": "https://cctvjss.jogjakota.go.id/malioboro/NolKm_Timur.stream/playlist.m3u8", "lat": "-7.801309", "lng": "110.364931"},
  {"id": "247", "title": "Nol Km. - Gd. Agung", "url": "https://cctvjss.jogjakota.go.id/malioboro/NolKm_GdAgung.stream/playlist.m3u8", "lat": "-7.801025", "lng": "110.364945"},
  {"id": "248", "title": "Simpang Gramedia (PTZ)", "url": "https://cctvjss.jogjakota.go.id/atcs/ATCS_Gramedia_2.stream/playlist.m3u8", "lat": "-7.782861", "lng": "110.374810"},
  {"id": "249", "title": "Simpang Jati Kencana (PTZ)", "url": "https://cctvjss.jogjakota.go.id/atcs/ATCS_Simpang_JatiKencana.stream/playlist.m3u8", "lat": "-7.781720", "lng": "110.352582"},
  {"id": "250", "title": "Simpang Borobudur Plaza", "url": "https://cctvjss.jogjakota.go.id/atcs/ATCS_Simpang_Borobudur_Plaza.stream/playlist.m3u8", "lat": "-7.778378", "lng": "110.361056"},
  {"id": "251", "title": "Simpang Tugu (PTZ)", "url": "https://cctvjss.jogjakota.go.id/atcs/ATCS_Simpang_Tugu.stream/playlist.m3u8", "lat": "-7.782902", "lng": "110.366978"},
  {"id": "273", "title": "Simpang Bausasran (PTZ)", "url": "https://cctvjss.jogjakota.go.id/atcs/ATCS_S4_Bausasran.stream/playlist.m3u8", "lat": "-7.796832", "lng": "110.372596"},
  {"id": "275", "title": "Simpang Pingit 5 (PTZ)", "url": "https://cctvjss.jogjakota.go.id/atcs/ATCS_Lampu_Merah_Pingit5.stream/playlist.m3u8", "lat": "-7.782213", "lng": "110.359302"},
  {"id": "323", "title": "Gerbang Masuk Utara V. Timur (Luar)", "url": "https://cctvjss.jogjakota.go.id/balaikota/Balaikota_Gerbang_Masuk_Utara_View_Timur-Luar.stream/playlist.m3u8", "lat": "-7.799257", "lng": "110.390858"},
  {"id": "324", "title": "Gerbang Timur PKK V. Utara (Luar)", "url": "https://cctvjss.jogjakota.go.id/balaikota/Balaikota_Gerbang_Timur_PKK_View_Utara-Luar.stream/playlist.m3u8", "lat": "-7.800351", "lng": "110.392185"},
  {"id": "325", "title": "Gerbang Timur PKK V. Selatan (Luar)", "url": "https://cctvjss.jogjakota.go.id/balaikota/Balaikota_Gerbang_Timur_PKK_View_Selatan-Luar.stream/playlist.m3u8", "lat": "-7.800517", "lng": "110.392176"},
  {"id": "360", "title": "Simpang Balaikota (PTZ)", "url": "https://cctvjss.jogjakota.go.id/atcs/ATCS_Simpang_Balaikota_PTZ.stream/playlist.m3u8", "lat": "-7.799677", "lng": "110.392269"},
  {"id": "361", "title": "Simpang Mandala Krida (PTZ)", "url": "https://cctvjss.jogjakota.go.id/atcs/ATCS_Simpang_Mandala_Krida_PTZ.stream/playlist.m3u8", "lat": "-7.797693", "lng": "110.384987"},
  {"id": "362", "title": "Simpang Basen", "url": "https://cctvjss.jogjakota.go.id/atcs/ATCS_Simpang_Basen.stream/playlist.m3u8", "lat": "-7.820469", "lng": "110.400822"},
  {"id": "368", "title": "Simpang Melia Purosani (PTZ)", "url": "https://cctvjss.jogjakota.go.id/atcs/ATCS_Simpang_Melia_Purosani.stream/playlist.m3u8", "lat": "-7.796728", "lng": "110.369105"},
  {"id": "369", "title": "Simpang Patangpuluhan (PTZ)", "url": "https://cctvjss.jogjakota.go.id/atcs/ATCS_Simpang_Patangpuluhan.stream/playlist.m3u8", "lat": "-7.807857", "lng": "110.350385"},
  {"id": "370", "title": "Simpang Atmosukarto (PTZ)", "url": "https://cctvjss.jogjakota.go.id/atcs/ATCS_Simpang_Atmosukarto.stream/playlist.m3u8", "lat": "-7.788263", "lng": "110.378327"},
  {"id": "371", "title": "Simpang Gondomanan View Selatan", "url": "https://cctvjss.jogjakota.go.id/atcs/ATCS_Simpang_Gondomanan_View_Selatan.stream/playlist.m3u8", "lat": "-7.801558", "lng": "110.369282"},
  {"id": "396", "title": "Simpang Pasar Telo View Selatan", "url": "https://cctvjss.jogjakota.go.id/atcs/ATCS_Simpang_Pasar_Telo_View_Selatan.stream/playlist.m3u8", "lat": "-7.824088", "lng": "110.373241"},
  {"id": "397", "title": "Simpang Pasar Telo View Utara", "url": "https://cctvjss.jogjakota.go.id/atcs/ATCS_Simpang_Pasar_Telo_View_Utara.stream/playlist.m3u8", "lat": "-7.824001", "lng": "110.373278"},
  {"id": "398", "title": "Simpang Gambiran View Timur", "url": "https://cctvjss.jogjakota.go.id/atcs/ATCS_Simpang_Gambiran_View_Timur.stream/playlist.m3u8", "lat": "-7.817975", "lng": "110.390792"},
  {"id": "399", "title": "Simpang Gambiran View Barat", "url": "https://cctvjss.jogjakota.go.id/atcs/ATCS_Simpang_Gambiran_View_Barat.stream/playlist.m3u8", "lat": "-7.818018", "lng": "110.390698"},
  {"id": "428", "title": "Utara Jl. Gowongan Lor", "url": "https://cctvjss.jogjakota.go.id/margo-utomo/Gowongan-Lor.stream/playlist.m3u8", "lat": "-7.785469", "lng": "110.366645"},
  {"id": "429", "title": "Optic Tugu", "url": "https://cctvjss.jogjakota.go.id/margo-utomo/Optic-Tugu.stream/playlist.m3u8", "lat": "-7.787608", "lng": "110.366362"},
  {"id": "430", "title": "Selatan Olive", "url": "https://cctvjss.jogjakota.go.id/margo-utomo/Selatan-Olive.stream/playlist.m3u8", "lat": "-7.786747", "lng": "110.366453"},
  {"id": "431", "title": "Selatan Tugu", "url": "https://cctvjss.jogjakota.go.id/margo-utomo/Toko-Cat-Wahyu.stream/playlist.m3u8", "lat": "-7.783625", "lng": "110.366842"},
  {"id": "432", "title": "Wijaya Baru Travel", "url": "https://cctvjss.jogjakota.go.id/margo-utomo/Wijaya-Baru-Travel.stream/playlist.m3u8", "lat": "-7.786227", "lng": "110.366510"},
  {"id": "433", "title": "Utara Teteg", "url": "https://cctvjss.jogjakota.go.id/margo-utomo/Wisma-Ratih.stream/playlist.m3u8", "lat": "-7.789520", "lng": "110.366122"},
  {"id": "434", "title": "Jl. Nyoman Oka (Gereja Kotabaru)", "url": "https://cctvjss.jogjakota.go.id/kotabaru/Jl-Nyoman-Oka.stream/playlist.m3u8", "lat": "-7.787895", "lng": "110.371334"},
  {"id": "435", "title": "Jl. Sajiono (Roemi)", "url": "https://cctvjss.jogjakota.go.id/kotabaru/Jl-Sajiono.stream/playlist.m3u8", "lat": "-7.785588", "lng": "110.374274"},
  {"id": "436", "title": "Jl. Yos Sudarso (Mie Gacoan)", "url": "https://cctvjss.jogjakota.go.id/kotabaru/ANPR-Jl-Yos-Sudarso.stream/playlist.m3u8", "lat": "-7.788155", "lng": "110.374923"},
  {"id": "437", "title": "Jl. Wardhani (Selatan-Timur SMPN 5)", "url": "https://cctvjss.jogjakota.go.id/kotabaru/ANPR-Jl-Wardhani.stream/playlist.m3u8", "lat": "-7.787315", "lng": "110.375384"},
  {"id": "439", "title": "Jl. Ahmad Jazuli (Apotek K24)", "url": "https://cctvjss.jogjakota.go.id/kotabaru/ANPR-Jl-Ahmad-Jazuli.stream/playlist.m3u8", "lat": "-7.789187", "lng": "110.369666"},
  {"id": "440", "title": "Jl. F.M. Noto (Raminten)", "url": "https://cctvjss.jogjakota.go.id/kotabaru/ANPR-Jl-FM-Noto-Raminten.stream/playlist.m3u8", "lat": "-7.784987", "lng": "110.371597"},
  {"id": "441", "title": "Jl. F.M. Noto (Gardu ANIEM)", "url": "https://cctvjss.jogjakota.go.id/kotabaru/ANPR-Jl-FM-Noto-Gardu-Aniem.stream/playlist.m3u8", "lat": "-7.786832", "lng": "110.372170"},
  {"id": "443", "title": "Jl. Juadi (Pojok Utara-Barat Telkom)", "url": "https://cctvjss.jogjakota.go.id/kotabaru/Jl-Juadi.stream/playlist.m3u8", "lat": "-7.785822", "lng": "110.374569"},
  {"id": "444", "title": "Jl. F.M. Noto (McDonalds)", "url": "https://cctvjss.jogjakota.go.id/kotabaru/ANPR-Jl-FM-Noto-McDonalds.stream/playlist.m3u8", "lat": "-7.782968", "lng": "110.371377"},
  {"id": "448", "title": "KemMJ-Timur Kemantren", "url": "https://cctvjss.jogjakota.go.id/kecamatan/KemMJ-TimurKemantren.stream/playlist.m3u8", "lat": "-7.820748", "lng": "110.361783"},
  {"id": "449", "title": "KemMJ-Pendopo Kemantren", "url": "https://cctvjss.jogjakota.go.id/kecamatan/KemMJ-PendopoKemantren.stream/playlist.m3u8", "lat": "-7.820833", "lng": "110.361697"},
  {"id": "450", "title": "KemMJ-Jalan Selatan Kemantren", "url": "https://cctvjss.jogjakota.go.id/kecamatan/KemMJ-JalanSelatanKemantren.stream/playlist.m3u8", "lat": "-7.820772", "lng": "110.361697"},
  {"id": "466", "title": "Simpang Wirosaban View Selatan", "url": "https://cctvjss.jogjakota.go.id/atcs/ATCS_Simpang_Wirosaban_View_Selatan.stream/playlist.m3u8", "lat": "-7.824866", "lng": "110.378483"},
  {"id": "467", "title": "Simpang Wirosaban View Utara", "url": "https://cctvjss.jogjakota.go.id/atcs/ATCS_Simpang_Wirosaban_View_Utara.stream/playlist.m3u8", "lat": "-7.824731", "lng": "110.378410"},
  {"id": "468", "title": "Simpang Wirosaban View Barat", "url": "https://cctvjss.jogjakota.go.id/atcs/ATCS_Simpang_Wirosaban_View_Barat.stream/playlist.m3u8", "lat": "-7.824814", "lng": "110.378392"},
  {"id": "469", "title": "Simpang Wirosaban View Timur", "url": "https://cctvjss.jogjakota.go.id/atcs/ATCS_Simpang_Wirosaban_View_Timur.stream/playlist.m3u8", "lat": "-7.824866", "lng": "110.378483"},
  {"id": "476", "title": "Kleringan (Jl. Abu Bakar Ali)", "url": "https://cctvjss.jogjakota.go.id/atcs/ATCS_Kleringan_Abu_Bakar_Ali.stream/playlist.m3u8", "lat": "-7.790545", "lng": "110.368854"},
  {"id": "477", "title": "Simpang Jogokariyan V. Utara", "url": "https://cctvjss.jogjakota.go.id/atcs/ATCS_Simpang_Jogokariyan_View_Utara.stream/playlist.m3u8", "lat": "-7.824631", "lng": "110.367623"},
  {"id": "518", "title": "RTHP Gajah Wong Edu Park 3", "url": "https://cctvjss.jogjakota.go.id/rthp/rthp_gajahwong_edupark_3.stream/playlist.m3u8", "lat": "-7.817672", "lng": "110.393505"},
  {"id": "519", "title": "RTHP Gajah Wong Edu Park 2", "url": "https://cctvjss.jogjakota.go.id/rthp/rthp_gajahwong_edupark_2.stream/playlist.m3u8", "lat": "-7.817514", "lng": "110.393580"},
  {"id": "520", "title": "RTHP Gajah Wong Edu Park 1", "url": "https://cctvjss.jogjakota.go.id/rthp/rthp_gajahwong_edupark_1.stream/playlist.m3u8", "lat": "-7.817487", "lng": "110.393484"},
  {"id": "522", "title": "Simpang Tegalgendu V. Selatan", "url": "https://cctvjss.jogjakota.go.id/atcs/ATCS_Simpang_Tegalgendu.stream/playlist.m3u8", "lat": "-7.825719", "lng": "110.390013"},
  {"id": "523", "title": "Simpang Letjen Suprapto-KS. Tubun V. Selatan", "url": "https://cctvjss.jogjakota.go.id/atcs/ATCS_Simpang_Letjen_Suprapto_KS_Tubun_View_Selatan.stream/playlist.m3u8", "lat": "-7.797387", "lng": "110.356453"},
  {"id": "524", "title": "Simpang Letjen Suprapto-KS. Tubun V. Utara", "url": "https://cctvjss.jogjakota.go.id/atcs/ATCS_Simpang_Letjen_Suprapto_KS_Tubun_View_Utara.stream/playlist.m3u8", "lat": "-7.797292", "lng": "110.356416"},
  {"id": "525", "title": "Simpang Glagahsari (PTZ)", "url": "https://cctvjss.jogjakota.go.id/atcs/ATCS_Glagahsari_PTZ.stream/playlist.m3u8", "lat": "-7.801783", "lng": "110.389074"},
  {"id": "755", "title": "Simpang Gramedia V. Utara-Timur", "url": "https://cctvjss.jogjakota.go.id/atcs/ATCS_gramedia.stream/playlist.m3u8", "lat": "-7.782626", "lng": "110.374661"},
  {"id": "797", "title": "Jl. Mas Suharto V. Selatan (Depan LASERCOM)", "url": "https://cctvjss.jogjakota.go.id/tps-liar/S3_Jl_Mas Suharto-Jl_Tegalpanggung.stream/playlist.m3u8", "lat": "-7.793199", "lng": "110.371060"},
  {"id": "798", "title": "Jl. Mas Suharto V. Utara (Barat Sari Wangi Parfum)", "url": "https://cctvjss.jogjakota.go.id/tps-liar/S3_Jl_Mas Suharto-Jl_Tukangan.stream/playlist.m3u8", "lat": "-7.793247", "lng": "110.371592"},
  {"id": "816", "title": "RTHP Jopraban 3", "url": "https://cctvjss.jogjakota.go.id/rthp/rthp_jopraban_3.stream/playlist.m3u8", "lat": "-7.802782", "lng": "110.351668"},
  {"id": "817", "title": "RTHP Jopraban 2", "url": "https://cctvjss.jogjakota.go.id/rthp/rthp_jopraban_2.stream/playlist.m3u8", "lat": "-7.802782", "lng": "110.351604"},
  {"id": "818", "title": "RTHP Jopraban 1", "url": "https://cctvjss.jogjakota.go.id/rthp/rthp_jopraban_1.stream/playlist.m3u8", "lat": "-7.802723", "lng": "110.351529"},
  {"id": "829", "title": "Simpang Demangan View Timur", "url": "https://cctvjss.jogjakota.go.id/atcs/ATCS_Simpang_Demangan_View_Timur.stream/playlist.m3u8", "lat": "-7.783069", "lng": "110.387863"},
  {"id": "839", "title": "RTHP Bumen", "url": "https://cctvjss.jogjakota.go.id/rthp/rthp_bumen.stream/playlist.m3u8", "lat": "-7.826495", "lng": "110.403515"},
  {"id": "842", "title": "Depan DPRD V. Utara", "url": "https://cctvjss.jogjakota.go.id/dprd-kota/depan-dprd-v-utara.stream/playlist.m3u8", "lat": "-7.796967", "lng": "110.392464"},
  {"id": "843", "title": "Depan DPRD V. Selatan", "url": "https://cctvjss.jogjakota.go.id/dprd-kota/depan-dprd-v-selatan.stream/playlist.m3u8", "lat": "-7.797154", "lng": "110.392448"},
  {"id": "844", "title": "Depan DPRD Pos Security", "url": "https://cctvjss.jogjakota.go.id/dprd-kota/depan-dprd-pos-security.stream/playlist.m3u8", "lat": "-7.797063", "lng": "110.392336"},
  {"id": "850", "title": "Simpang Pasar Telo (PTZ)", "url": "https://cctvjss.jogjakota.go.id/atcs/ATCS_Pasar_Telo_PTZ.stream/playlist.m3u8", "lat": "-7.823812", "lng": "110.373152"},
  {"id": "851", "title": "Simpang Karang Tunggal (PTZ)", "url": "https://cctvjss.jogjakota.go.id/atcs/ATCS_Karang_Tunggal_PTZ.stream/playlist.m3u8", "lat": "-7.815037", "lng": "110.373013"},
  {"id": "856", "title": "Simpang Gramedia V. Timur", "url": "https://cctvjss.jogjakota.go.id/kotabaru/ANPR-Simpang-Gramedia-V-Timur_Ex-Jl-Prau.stream/playlist.m3u8", "lat": "-7.782808", "lng": "110.374789"},
  {"id": "873", "title": "Simpang Mantrigawen (PTZ)", "url": "https://cctvjss.jogjakota.go.id/atcs/ATCS_Mantrigawen_PTZ.stream/playlist.m3u8", "lat": "-7.808962", "lng": "110.369017"}
]