[
    {
        "source_id": 32,
        "name": "Alamasri arah Terminal Ciakar",
        "latitude": -6.835073,
        "longitude": 107.930178,
        "stream_url": "https://shinobi.sumedangkab.go.id/lKaKTqOjXLc1NAgDUqhqEBhFV4n8bh/hls/fMXW29kaZd/17rAoDNKWr80/s.m3u8",
        "playlist_host": "shinobi.sumedangkab.go.id",
        "source_site": "https://atcs.sumedangkab.go.id/lokasicctv",
        "provider": "Shinobi ATCS Sumedang",
        "verified_playlist_status": 200
    },
    {
        "source_id": 33,
        "name": "Alamsari Arah Cirebon",
        "latitude": -6.83511,
        "longitude": 107.930439,
        "stream_url": "https://shinobi.sumedangkab.go.id/lKaKTqOjXLc1NAgDUqhqEBhFV4n8bh/hls/fMXW29kaZd/VvGm3WpNa3/s.m3u8",
        "playlist_host": "shinobi.sumedangkab.go.id",
        "source_site": "https://atcs.sumedangkab.go.id/lokasicctv",
        "provider": "Shinobi ATCS Sumedang",
        "verified_playlist_status": 200
    },
    {
        "source_id": 35,
        "name": "Alamsari Arah Kota",
        "latitude": -6.83531,
        "longitude": 107.930129,
        "stream_url": "https://shinobi.sumedangkab.go.id/lKaKTqOjXLc1NAgDUqhqEBhFV4n8bh/hls/fMXW29kaZd/CiUyB6JrWp/s.m3u8",
        "playlist_host": "shinobi.sumedangkab.go.id",
        "source_site": "https://atcs.sumedangkab.go.id/lokasicctv",
        "provider": "Shinobi ATCS Sumedang",
        "verified_playlist_status": 200
    },
    {
        "source_id": 34,
        "name": "Alamsari Arah Wado",
        "latitude": -6.83538,
        "longitude": 107.930375,
        "stream_url": "https://shinobi.sumedangkab.go.id/lKaKTqOjXLc1NAgDUqhqEBhFV4n8bh/hls/fMXW29kaZd/AsIToXoQVc/s.m3u8",
        "playlist_host": "shinobi.sumedangkab.go.id",
        "source_site": "https://atcs.sumedangkab.go.id/lokasicctv",
        "provider": "Shinobi ATCS Sumedang",
        "verified_playlist_status": 200
    },
    {
        "source_id": 31,
        "name": "Alamsari Fix",
        "latitude": -6.835046,
        "longitude": 107.930282,
        "stream_url": "https://shinobi.sumedangkab.go.id/lKaKTqOjXLc1NAgDUqhqEBhFV4n8bh/hls/fMXW29kaZd/23YtWcxa5H/s.m3u8",
        "playlist_host": "shinobi.sumedangkab.go.id",
        "source_site": "https://atcs.sumedangkab.go.id/lokasicctv",
        "provider": "Shinobi ATCS Sumedang",
        "verified_playlist_status": 200
    },
    {
        "source_id": 37,
        "name": "Alun-Alun Utara arah Rancapurut",
        "latitude": -6.848248,
        "longitude": 107.927282,
        "stream_url": "https://shinobi.sumedangkab.go.id/lKaKTqOjXLc1NAgDUqhqEBhFV4n8bh/hls/fMXW29kaZd/ALUNALUNUTARAFIX2/s.m3u8",
        "playlist_host": "shinobi.sumedangkab.go.id",
        "source_site": "https://atcs.sumedangkab.go.id/lokasicctv",
        "provider": "Shinobi ATCS Sumedang",
        "verified_playlist_status": 200
    },
    {
        "source_id": 36,
        "name": "Alun-Alun Utara arah Taman Endog",
        "latitude": -6.84825,
        "longitude": 107.92727,
        "stream_url": "https://shinobi.sumedangkab.go.id/lKaKTqOjXLc1NAgDUqhqEBhFV4n8bh/hls/fMXW29kaZd/ALUNALUNUTARAFIX1/s.m3u8",
        "playlist_host": "shinobi.sumedangkab.go.id",
        "source_site": "https://atcs.sumedangkab.go.id/lokasicctv",
        "provider": "Shinobi ATCS Sumedang",
        "verified_playlist_status": 200
    },
    {
        "source_id": 39,
        "name": "Angkrek arah Alamsari",
        "latitude": -6.838935,
        "longitude": 107.926859,
        "stream_url": "https://shinobi.sumedangkab.go.id/lKaKTqOjXLc1NAgDUqhqEBhFV4n8bh/hls/fMXW29kaZd/7IBg7XJCLR/s.m3u8",
        "playlist_host": "shinobi.sumedangkab.go.id",
        "source_site": "https://atcs.sumedangkab.go.id/lokasicctv",
        "provider": "Shinobi ATCS Sumedang",
        "verified_playlist_status": 200
    },
    {
        "source_id": 38,
        "name": "Angkrek arah Ojolali",
        "latitude": -6.838934,
        "longitude": 107.926932,
        "stream_url": "https://shinobi.sumedangkab.go.id/lKaKTqOjXLc1NAgDUqhqEBhFV4n8bh/hls/fMXW29kaZd/2PzEEi5hR6/s.m3u8",
        "playlist_host": "shinobi.sumedangkab.go.id",
        "source_site": "https://atcs.sumedangkab.go.id/lokasicctv",
        "provider": "Shinobi ATCS Sumedang",
        "verified_playlist_status": 200
    },
    {
        "source_id": 53,
        "name": "Binokasih Arah Cirebon",
        "latitude": -6.860172,
        "longitude": 107.916439,
        "stream_url": "https://shinobi.sumedangkab.go.id/lKaKTqOjXLc1NAgDUqhqEBhFV4n8bh/hls/fMXW29kaZd/Y2JdzS2W4t/s.m3u8",
        "playlist_host": "shinobi.sumedangkab.go.id",
        "source_site": "https://atcs.sumedangkab.go.id/lokasicctv",
        "provider": "Shinobi ATCS Sumedang",
        "verified_playlist_status": 200
    },
    {
        "source_id": 54,
        "name": "Binokasih Arah Gunung Puyuh",
        "latitude": -6.860589,
        "longitude": 107.916247,
        "stream_url": "https://shinobi.sumedangkab.go.id/lKaKTqOjXLc1NAgDUqhqEBhFV4n8bh/hls/fMXW29kaZd/ABtji54TOv/s.m3u8",
        "playlist_host": "shinobi.sumedangkab.go.id",
        "source_site": "https://atcs.sumedangkab.go.id/lokasicctv",
        "provider": "Shinobi ATCS Sumedang",
        "verified_playlist_status": 200
    },
    {
        "source_id": 57,
        "name": "Binokasih arah Kota",
        "latitude": -6.860473,
        "longitude": 107.916554,
        "stream_url": "https://shinobi.sumedangkab.go.id/lKaKTqOjXLc1NAgDUqhqEBhFV4n8bh/hls/fMXW29kaZd/AnenNAeJvm/s.m3u8",
        "playlist_host": "shinobi.sumedangkab.go.id",
        "source_site": "https://atcs.sumedangkab.go.id/lokasicctv",
        "provider": "Shinobi ATCS Sumedang",
        "verified_playlist_status": 200
    },
    {
        "source_id": 56,
        "name": "Binokasih Fix",
        "latitude": -6.86054,
        "longitude": 107.916486,
        "stream_url": "https://shinobi.sumedangkab.go.id/lKaKTqOjXLc1NAgDUqhqEBhFV4n8bh/hls/fMXW29kaZd/Gcga8Gq1Bg/s.m3u8",
        "playlist_host": "shinobi.sumedangkab.go.id",
        "source_site": "https://atcs.sumedangkab.go.id/lokasicctv",
        "provider": "Shinobi ATCS Sumedang",
        "verified_playlist_status": 200
    },
    {
        "source_id": 12,
        "name": "BJB",
        "latitude": -6.85448,
        "longitude": 107.922109,
        "stream_url": "https://shinobi.sumedangkab.go.id/lKaKTqOjXLc1NAgDUqhqEBhFV4n8bh/hls/fMXW29kaZd/BJBFIX1/s.m3u8",
        "playlist_host": "shinobi.sumedangkab.go.id",
        "source_site": "https://atcs.sumedangkab.go.id/lokasicctv",
        "provider": "Shinobi ATCS Sumedang",
        "verified_playlist_status": 200
    },
    {
        "source_id": 4,
        "name": "Cimayor",
        "latitude": -6.832749,
        "longitude": 107.935399,
        "stream_url": "https://shinobi.sumedangkab.go.id/lKaKTqOjXLc1NAgDUqhqEBhFV4n8bh/hls/fMXW29kaZd/HnhfzqGh0y/s.m3u8",
        "playlist_host": "shinobi.sumedangkab.go.id",
        "source_site": "https://atcs.sumedangkab.go.id/lokasicctv",
        "provider": "Shinobi ATCS Sumedang",
        "verified_playlist_status": 200
    },
    {
        "source_id": 25,
        "name": "Cisero",
        "latitude": -6.84679,
        "longitude": 107.943118,
        "stream_url": "https://shinobi.sumedangkab.go.id/lKaKTqOjXLc1NAgDUqhqEBhFV4n8bh/hls/fMXW29kaZd/nJ1wvySF6j/s.m3u8",
        "playlist_host": "shinobi.sumedangkab.go.id",
        "source_site": "https://atcs.sumedangkab.go.id/lokasicctv",
        "provider": "Shinobi ATCS Sumedang",
        "verified_playlist_status": 200
    },
    {
        "source_id": 52,
        "name": "Dishub arah Alamsari",
        "latitude": -6.832669,
        "longitude": 107.927017,
        "stream_url": "https://shinobi.sumedangkab.go.id/lKaKTqOjXLc1NAgDUqhqEBhFV4n8bh/hls/fMXW29kaZd/gk5Lo9izdg/s.m3u8",
        "playlist_host": "shinobi.sumedangkab.go.id",
        "source_site": "https://atcs.sumedangkab.go.id/lokasicctv",
        "provider": "Shinobi ATCS Sumedang",
        "verified_playlist_status": 200
    },
    {
        "source_id": 51,
        "name": "Dishub arah Terminal Ciakar",
        "latitude": -6.832661,
        "longitude": 107.92701,
        "stream_url": "https://shinobi.sumedangkab.go.id/lKaKTqOjXLc1NAgDUqhqEBhFV4n8bh/hls/fMXW29kaZd/O5F8wyHX9Y/s.m3u8",
        "playlist_host": "shinobi.sumedangkab.go.id",
        "source_site": "https://atcs.sumedangkab.go.id/lokasicctv",
        "provider": "Shinobi ATCS Sumedang",
        "verified_playlist_status": 200
    },
    {
        "source_id": 40,
        "name": "Griya arah Alamsari",
        "latitude": -6.840569,
        "longitude": 107.925914,
        "stream_url": "https://shinobi.sumedangkab.go.id/lKaKTqOjXLc1NAgDUqhqEBhFV4n8bh/hls/fMXW29kaZd/GRIYAFIX1/s.m3u8",
        "playlist_host": "shinobi.sumedangkab.go.id",
        "source_site": "https://atcs.sumedangkab.go.id/lokasicctv",
        "provider": "Shinobi ATCS Sumedang",
        "verified_playlist_status": 200
    },
    {
        "source_id": 41,
        "name": "Griya arah Ojolali",
        "latitude": -6.84059,
        "longitude": 107.925909,
        "stream_url": "https://shinobi.sumedangkab.go.id/lKaKTqOjXLc1NAgDUqhqEBhFV4n8bh/hls/fMXW29kaZd/GRIYAFIX2/s.m3u8",
        "playlist_host": "shinobi.sumedangkab.go.id",
        "source_site": "https://atcs.sumedangkab.go.id/lokasicctv",
        "provider": "Shinobi ATCS Sumedang",
        "verified_playlist_status": 200
    },
    {
        "source_id": 58,
        "name": "KEJAKSAAN Fix 1",
        "latitude": -6.859148,
        "longitude": 107.921458,
        "stream_url": "https://shinobi.sumedangkab.go.id/lKaKTqOjXLc1NAgDUqhqEBhFV4n8bh/hls/fMXW29kaZd/SKEJAKSAANFIX1/s.m3u8",
        "playlist_host": "shinobi.sumedangkab.go.id",
        "source_site": "https://atcs.sumedangkab.go.id/lokasicctv",
        "provider": "Shinobi ATCS Sumedang",
        "verified_playlist_status": 200
    },
    {
        "source_id": 59,
        "name": "KEJAKSAAN Fix 2",
        "latitude": -6.859164,
        "longitude": 107.921451,
        "stream_url": "https://shinobi.sumedangkab.go.id/lKaKTqOjXLc1NAgDUqhqEBhFV4n8bh/hls/fMXW29kaZd/KEJAKSAANFIX2/s.m3u8",
        "playlist_host": "shinobi.sumedangkab.go.id",
        "source_site": "https://atcs.sumedangkab.go.id/lokasicctv",
        "provider": "Shinobi ATCS Sumedang",
        "verified_playlist_status": 200
    },
    {
        "source_id": 29,
        "name": "Lapas",
        "latitude": -6.860259,
        "longitude": 107.921259,
        "stream_url": "https://shinobi.sumedangkab.go.id/lKaKTqOjXLc1NAgDUqhqEBhFV4n8bh/hls/fMXW29kaZd/LAPASFIX1/s.m3u8",
        "playlist_host": "shinobi.sumedangkab.go.id",
        "source_site": "https://atcs.sumedangkab.go.id/lokasicctv",
        "provider": "Shinobi ATCS Sumedang",
        "verified_playlist_status": 200
    },
    {
        "source_id": 15,
        "name": "MPP",
        "latitude": -6.860277,
        "longitude": 107.920196,
        "stream_url": "https://shinobi.sumedangkab.go.id/lKaKTqOjXLc1NAgDUqhqEBhFV4n8bh/hls/fMXW29kaZd/ksdJQKylYA80/s.m3u8",
        "playlist_host": "shinobi.sumedangkab.go.id",
        "source_site": "https://atcs.sumedangkab.go.id/lokasicctv",
        "provider": "Shinobi ATCS Sumedang",
        "verified_playlist_status": 200
    },
    {
        "source_id": 43,
        "name": "Ojolali arah Alamsari",
        "latitude": -6.84122,
        "longitude": 107.925601,
        "stream_url": "https://shinobi.sumedangkab.go.id/lKaKTqOjXLc1NAgDUqhqEBhFV4n8bh/hls/fMXW29kaZd/OJOLALIFIX2/s.m3u8",
        "playlist_host": "shinobi.sumedangkab.go.id",
        "source_site": "https://atcs.sumedangkab.go.id/lokasicctv",
        "provider": "Shinobi ATCS Sumedang",
        "verified_playlist_status": 200
    },
    {
        "source_id": 42,
        "name": "Ojolali arah Taman Endog",
        "latitude": -6.841049,
        "longitude": 107.925738,
        "stream_url": "https://shinobi.sumedangkab.go.id/lKaKTqOjXLc1NAgDUqhqEBhFV4n8bh/hls/fMXW29kaZd/OJOLALIFIX1/s.m3u8",
        "playlist_host": "shinobi.sumedangkab.go.id",
        "source_site": "https://atcs.sumedangkab.go.id/lokasicctv",
        "provider": "Shinobi ATCS Sumedang",
        "verified_playlist_status": 200
    },
    {
        "source_id": 26,
        "name": "Padasuka",
        "latitude": -6.849571,
        "longitude": 107.913192,
        "stream_url": "https://shinobi.sumedangkab.go.id/lKaKTqOjXLc1NAgDUqhqEBhFV4n8bh/hls/fMXW29kaZd/tkvPVkAcVD/s.m3u8",
        "playlist_host": "shinobi.sumedangkab.go.id",
        "source_site": "https://atcs.sumedangkab.go.id/lokasicctv",
        "provider": "Shinobi ATCS Sumedang",
        "verified_playlist_status": 200
    },
    {
        "source_id": 62,
        "name": "Pajaji arah Cirebon",
        "latitude": -6.849864,
        "longitude": 107.923172,
        "stream_url": "https://shinobi.sumedangkab.go.id/lKaKTqOjXLc1NAgDUqhqEBhFV4n8bh/hls/fMXW29kaZd/PAJAJIFIX1/s.m3u8",
        "playlist_host": "shinobi.sumedangkab.go.id",
        "source_site": "https://atcs.sumedangkab.go.id/lokasicctv",
        "provider": "Shinobi ATCS Sumedang",
        "verified_playlist_status": 200
    },
    {
        "source_id": 23,
        "name": "Pasifik",
        "latitude": -6.847973,
        "longitude": 107.923668,
        "stream_url": "https://shinobi.sumedangkab.go.id/lKaKTqOjXLc1NAgDUqhqEBhFV4n8bh/hls/fMXW29kaZd/TENDOGFIX3/s.m3u8",
        "playlist_host": "shinobi.sumedangkab.go.id",
        "source_site": "https://atcs.sumedangkab.go.id/lokasicctv",
        "provider": "Shinobi ATCS Sumedang",
        "verified_playlist_status": 200
    },
    {
        "source_id": 24,
        "name": "PKB Rancapurut",
        "latitude": -6.848544,
        "longitude": 107.935339,
        "stream_url": "https://shinobi.sumedangkab.go.id/lKaKTqOjXLc1NAgDUqhqEBhFV4n8bh/hls/fMXW29kaZd/mTrvlky6xa80/s.m3u8",
        "playlist_host": "shinobi.sumedangkab.go.id",
        "source_site": "https://atcs.sumedangkab.go.id/lokasicctv",
        "provider": "Shinobi ATCS Sumedang",
        "verified_playlist_status": 200
    },
    {
        "source_id": 61,
        "name": "RSUD Arah Bandung",
        "latitude": -6.857031,
        "longitude": 107.921762,
        "stream_url": "https://shinobi.sumedangkab.go.id/lKaKTqOjXLc1NAgDUqhqEBhFV4n8bh/hls/fMXW29kaZd/mG49WVXDqJ/s.m3u8",
        "playlist_host": "shinobi.sumedangkab.go.id",
        "source_site": "https://atcs.sumedangkab.go.id/lokasicctv",
        "provider": "Shinobi ATCS Sumedang",
        "verified_playlist_status": 200
    },
    {
        "source_id": 60,
        "name": "RSUD Arah Cirebon",
        "latitude": -6.857093,
        "longitude": 107.921677,
        "stream_url": "https://shinobi.sumedangkab.go.id/lKaKTqOjXLc1NAgDUqhqEBhFV4n8bh/hls/fMXW29kaZd/0j7lrn9dje/s.m3u8",
        "playlist_host": "shinobi.sumedangkab.go.id",
        "source_site": "https://atcs.sumedangkab.go.id/lokasicctv",
        "provider": "Shinobi ATCS Sumedang",
        "verified_playlist_status": 200
    },
    {
        "source_id": 8,
        "name": "Samoja",
        "latitude": -6.863487,
        "longitude": 107.897132,
        "stream_url": "https://shinobi.sumedangkab.go.id/lKaKTqOjXLc1NAgDUqhqEBhFV4n8bh/hls/fMXW29kaZd/samojafix1/s.m3u8",
        "playlist_host": "shinobi.sumedangkab.go.id",
        "source_site": "https://atcs.sumedangkab.go.id/lokasicctv",
        "provider": "Shinobi ATCS Sumedang",
        "verified_playlist_status": 200
    },
    {
        "source_id": 17,
        "name": "Seni Abadi",
        "latitude": -6.845514,
        "longitude": 107.92447,
        "stream_url": "https://shinobi.sumedangkab.go.id/lKaKTqOjXLc1NAgDUqhqEBhFV4n8bh/hls/fMXW29kaZd/BTNFIX1/s.m3u8",
        "playlist_host": "shinobi.sumedangkab.go.id",
        "source_site": "https://atcs.sumedangkab.go.id/lokasicctv",
        "provider": "Shinobi ATCS Sumedang",
        "verified_playlist_status": 200
    },
    {
        "source_id": 49,
        "name": "Simpang BNI",
        "latitude": -6.852826,
        "longitude": 107.922577,
        "stream_url": "https://shinobi.sumedangkab.go.id/lKaKTqOjXLc1NAgDUqhqEBhFV4n8bh/hls/fMXW29kaZd/BNIFIX1/s.m3u8",
        "playlist_host": "shinobi.sumedangkab.go.id",
        "source_site": "https://atcs.sumedangkab.go.id/lokasicctv",
        "provider": "Shinobi ATCS Sumedang",
        "verified_playlist_status": 200
    },
    {
        "source_id": 50,
        "name": "Simpang GIM",
        "latitude": -6.8521876,
        "longitude": 107.92266,
        "stream_url": "https://shinobi.sumedangkab.go.id/lKaKTqOjXLc1NAgDUqhqEBhFV4n8bh/hls/fMXW29kaZd/BNIFIX2/s.m3u8",
        "playlist_host": "shinobi.sumedangkab.go.id",
        "source_site": "https://atcs.sumedangkab.go.id/lokasicctv",
        "provider": "Shinobi ATCS Sumedang",
        "verified_playlist_status": 200
    },
    {
        "source_id": 63,
        "name": "Simpang Pajaji",
        "latitude": -6.849868,
        "longitude": 107.923258,
        "stream_url": "https://shinobi.sumedangkab.go.id/lKaKTqOjXLc1NAgDUqhqEBhFV4n8bh/hls/fMXW29kaZd/PAJAJIFIX2/s.m3u8",
        "playlist_host": "shinobi.sumedangkab.go.id",
        "source_site": "https://atcs.sumedangkab.go.id/lokasicctv",
        "provider": "Shinobi ATCS Sumedang",
        "verified_playlist_status": 200
    },
    {
        "source_id": 46,
        "name": "Taman Endog arah Alamsari",
        "latitude": -6.847332,
        "longitude": 107.923987,
        "stream_url": "https://shinobi.sumedangkab.go.id/lKaKTqOjXLc1NAgDUqhqEBhFV4n8bh/hls/fMXW29kaZd/TENDOGFIX4/s.m3u8",
        "playlist_host": "shinobi.sumedangkab.go.id",
        "source_site": "https://atcs.sumedangkab.go.id/lokasicctv",
        "provider": "Shinobi ATCS Sumedang",
        "verified_playlist_status": 200
    },
    {
        "source_id": 47,
        "name": "Taman Endog Arah Bandung",
        "latitude": -6.847342,
        "longitude": 107.923983,
        "stream_url": "https://shinobi.sumedangkab.go.id/lKaKTqOjXLc1NAgDUqhqEBhFV4n8bh/hls/fMXW29kaZd/TENDOGFIX1/s.m3u8",
        "playlist_host": "shinobi.sumedangkab.go.id",
        "source_site": "https://atcs.sumedangkab.go.id/lokasicctv",
        "provider": "Shinobi ATCS Sumedang",
        "verified_playlist_status": 200
    },
    {
        "source_id": 48,
        "name": "Taman Endog arah Tegalkalong",
        "latitude": -6.847555,
        "longitude": 107.923943,
        "stream_url": "https://shinobi.sumedangkab.go.id/lKaKTqOjXLc1NAgDUqhqEBhFV4n8bh/hls/fMXW29kaZd/TENDOGFIX2/s.m3u8",
        "playlist_host": "shinobi.sumedangkab.go.id",
        "source_site": "https://atcs.sumedangkab.go.id/lokasicctv",
        "provider": "Shinobi ATCS Sumedang",
        "verified_playlist_status": 200
    },
    {
        "source_id": 44,
        "name": "Taman Endog Fix 1",
        "latitude": -6.846988,
        "longitude": 107.924575,
        "stream_url": "https://shinobi.sumedangkab.go.id/lKaKTqOjXLc1NAgDUqhqEBhFV4n8bh/hls/fMXW29kaZd/TENDOG2FIX1/s.m3u8",
        "playlist_host": "shinobi.sumedangkab.go.id",
        "source_site": "https://atcs.sumedangkab.go.id/lokasicctv",
        "provider": "Shinobi ATCS Sumedang",
        "verified_playlist_status": 200
    },
    {
        "source_id": 45,
        "name": "Taman Endog Fix 2",
        "latitude": -6.846981,
        "longitude": 107.924575,
        "stream_url": "https://shinobi.sumedangkab.go.id/lKaKTqOjXLc1NAgDUqhqEBhFV4n8bh/hls/fMXW29kaZd/TENDOG2FIX2/s.m3u8",
        "playlist_host": "shinobi.sumedangkab.go.id",
        "source_site": "https://atcs.sumedangkab.go.id/lokasicctv",
        "provider": "Shinobi ATCS Sumedang",
        "verified_playlist_status": 200
    },
    {
        "source_id": 65,
        "name": "UPI arah Bandung",
        "latitude": -6.837309,
        "longitude": 107.928323,
        "stream_url": "https://shinobi.sumedangkab.go.id/lKaKTqOjXLc1NAgDUqhqEBhFV4n8bh/hls/fMXW29kaZd/UPIFIX2/s.m3u8",
        "playlist_host": "shinobi.sumedangkab.go.id",
        "source_site": "https://atcs.sumedangkab.go.id/lokasicctv",
        "provider": "Shinobi ATCS Sumedang",
        "verified_playlist_status": 200
    },
    {
        "source_id": 64,
        "name": "UPI arah Cirebon",
        "latitude": -6.837294,
        "longitude": 107.928344,
        "stream_url": "https://shinobi.sumedangkab.go.id/lKaKTqOjXLc1NAgDUqhqEBhFV4n8bh/hls/fMXW29kaZd/UPIFIX1/s.m3u8",
        "playlist_host": "shinobi.sumedangkab.go.id",
        "source_site": "https://atcs.sumedangkab.go.id/lokasicctv",
        "provider": "Shinobi ATCS Sumedang",
        "verified_playlist_status": 200
    }
]